City,Country,Temperature,Humidity,Cloudiness,Windspeed,Latitude,Longitude,Date
solotvyn,UA,53.26,92,6,3.74,48.7021,24.4221,1655525591
richards bay,ZA,53.29,58,0,6.96,-28.783,32.0377,1655525591
yulara,AU,70.45,30,67,11.59,-25.2406,130.9889,1655525328
potsdam,DE,70.29,80,97,7.61,52.3989,13.0657,1655525592
san policarpo,PH,85.8,71,30,9.71,12.1791,125.5072,1655525593
mataura,NZ,47.48,93,100,2.26,-46.1927,168.8643,1655525593
meulaboh,ID,80.38,75,97,1.3,4.1363,96.1285,1655525593
bengkulu,ID,82.44,69,100,4.43,-3.8004,102.2655,1655525594
viedma,AR,43.18,65,0,10.31,-40.8135,-62.9967,1655525595
ushuaia,AR,28.06,86,100,6.91,-54.8,-68.3,1655525595
port-gentil,GA,75.81,73,97,8.46,-0.7193,8.7815,1655525595
labuhan,ID,85.3,67,85,1.48,-6.8844,112.2051,1655525595
winslow,US,82.58,14,0,6.91,35.0242,-110.6974,1655525596
rikitea,PF,73.29,62,96,4.36,-23.1203,-134.9692,1655525596
paamiut,GL,45.72,81,100,32.82,61.994,-49.6678,1655525597
petropavlovsk-kamchatskiy,RU,64.99,52,75,2.24,53.0452,158.6483,1655525597
castro,BR,57.42,96,100,8.41,-24.7911,-50.0119,1655525598
lompoc,US,58.01,83,0,4.0,34.6391,-120.4579,1655525598
butaritari,KI,82.24,77,24,13.51,3.0707,172.7902,1655525598
reidsville,US,70.48,100,0,0.0,36.3549,-79.6645,1655525598
pisco,PE,61.02,88,100,8.05,-13.7,-76.2167,1655525599
khandyga,RU,73.08,47,73,1.74,62.6667,135.6,1655525599
biak,ID,81.09,77,64,3.85,-0.9131,122.8766,1655525599
cheremisinovo,RU,60.13,83,99,1.88,51.8855,37.2646,1655525599
hermanus,ZA,56.8,85,98,22.55,-34.4187,19.2345,1655525600
yellowknife,CA,53.46,55,16,8.95,62.456,-114.3525,1655525600
punta arenas,CL,32.11,80,75,6.91,-53.15,-70.9167,1655525600
cayenne,GF,76.08,1,75,3.44,4.9333,-52.3333,1655525523
barrow,US,33.82,86,100,13.8,71.2906,-156.7887,1655525469
bluff,NZ,47.8,70,99,10.47,-46.6,168.3333,1655525601
chuy,UY,47.34,58,28,11.83,-33.6971,-53.4616,1655525602
keighley,GB,58.93,3,99,1.01,53.8679,-1.9066,1655525602
katsuura,JP,74.64,85,100,15.84,35.1333,140.3,1655525602
halifax,CA,58.89,97,100,5.01,44.6453,-63.5724,1655525603
sain alto,MX,69.8,35,90,16.8,23.5833,-103.25,1655525603
limerick,IE,50.07,87,100,1.59,52.6647,-8.6231,1655525603
roma,US,62.82,86,30,10.78,43.2128,-75.4557,1655525526
saint-denis,FR,73.18,59,0,4.61,48.9167,2.3333,1655525522
porto novo,BJ,73.49,94,99,6.26,6.4965,2.6036,1655525529
abalak,RU,68.31,48,76,3.53,58.1286,68.5944,1655525604
souillac,MU,71.35,71,0,2.84,-20.5167,57.5167,1655525604
bredasdorp,ZA,55.33,90,96,9.98,-34.5322,20.0403,1655525605
raudeberg,NO,50.67,82,4,29.93,61.9875,5.1352,1655525606
leningradskiy,RU,40.26,69,98,8.57,69.3833,178.4167,1655525607
kudahuvadhoo,MV,82.92,71,100,6.15,2.6708,72.8944,1655525607
mogadishu,SO,79.36,73,20,17.38,2.0371,45.3438,1655525607
torres,BR,56.82,85,87,15.32,-29.3353,-49.7269,1655525607
tasiilaq,GL,39.36,91,100,4.14,65.6145,-37.6368,1655525607
atuona,PF,77.85,69,0,19.55,-9.8,-139.0333,1655525608
flin flon,CA,53.24,44,77,9.17,54.7682,-101.865,1655525608
tamboril,DO,72.7,94,40,0.0,19.4854,-70.611,1655525608
pangnirtung,CA,26.71,89,15,4.07,66.1451,-65.7125,1655525609
dikson,RU,31.55,85,7,12.59,73.5069,80.5464,1655525609
tabou,CI,76.48,72,99,8.03,4.423,-7.3528,1655525610
port alfred,ZA,61.75,35,56,9.22,-33.5906,26.891,1655525610
pocatky,CZ,59.22,75,88,1.01,49.2602,15.2402,1655525610
hilo,US,79.29,97,100,6.91,19.7297,-155.09,1655525611
upernavik,GL,32.95,88,62,10.29,72.7868,-56.1549,1655525611
albert,FR,65.57,81,0,4.61,50.0009,2.651,1655525611
kismayo,SO,77.81,78,6,13.24,-0.3582,42.5454,1655525611
kulhudhuffushi,MV,82.13,77,100,10.09,6.6221,73.07,1655525612
mahebourg,MU,72.25,73,0,1.07,-20.4081,57.7,1655525612
dunda,TZ,54.97,80,47,2.44,-8.1167,34.25,1655525612
bethel,US,73.76,74,0,3.44,41.3712,-73.414,1655525613
tashara,RU,57.07,96,100,8.84,55.5195,83.5094,1655525614
gilgit,PK,65.05,80,99,3.67,35.9221,74.3087,1655525614
busselton,AU,57.2,73,100,21.72,-33.65,115.3333,1655525614
cape town,ZA,58.37,89,75,14.97,-33.9258,18.4232,1655525359
fukue,JP,74.41,86,98,6.13,32.6881,128.8419,1655525616
lerwick,GB,50.0,80,6,28.23,60.1545,-1.1494,1655525616
santa isabel do rio negro,BR,71.74,97,61,2.62,-0.4139,-65.0192,1655525616
hobart,AU,56.26,88,40,4.61,-42.8794,147.3294,1655525410
puerto ayora,EC,70.56,95,50,7.0,-0.7393,-90.3518,1655525617
dunedin,NZ,48.79,63,89,8.01,-45.8742,170.5036,1655525585
tessalit,ML,82.36,45,99,4.7,20.1986,1.0114,1655525617
wanning,CN,89.29,68,88,17.31,18.8003,110.3967,1655525618
longyearbyen,SJ,40.84,75,75,10.36,78.2186,15.6401,1655525530
kuhdasht,IR,85.23,15,0,3.62,33.535,47.6061,1655525619
itarema,BR,74.57,82,96,7.11,-2.9248,-39.9167,1655525619
east london,ZA,63.36,31,29,9.73,-33.0153,27.9116,1655525568
rawson,AR,43.86,54,1,21.65,-43.3002,-65.1023,1655525620
khekra,IN,82.45,44,44,4.09,28.8667,77.2833,1655525620
prince rupert,CA,54.34,90,38,4.29,54.3161,-130.3201,1655525621
nanortalik,GL,43.34,91,100,16.93,60.1432,-45.2371,1655525622
saskylakh,RU,66.24,38,80,20.33,71.9167,114.0833,1655525622
port hardy,CA,54.09,79,100,9.71,50.6996,-127.4199,1655525623
carnarvon,AU,71.26,64,100,8.59,-24.8667,113.6333,1655525482
san cristobal,VE,71.78,97,99,2.64,7.7669,-72.225,1655525623
oum hadjer,TD,84.13,46,88,9.98,13.2954,19.6966,1655525623
los llanos de aridane,ES,65.95,88,75,19.57,28.6585,-17.9182,1655525624
te anau,NZ,44.53,88,35,4.05,-45.4167,167.7167,1655525409
cozumel,MX,77.0,87,69,4.0,20.5083,-86.9458,1655525388
lasa,IT,57.36,62,53,4.92,46.6166,10.7002,1655525624
ugoofaaru,MV,82.22,76,100,8.28,5.6667,73.0,1655525624
ponta do sol,PT,66.83,77,1,2.55,32.6667,-17.1,1655525625
nikolskoye,RU,54.91,80,73,4.74,59.7035,30.7861,1655525625
quatre cocos,MU,72.09,74,0,1.59,-20.2078,57.7625,1655525625
hithadhoo,MV,83.03,74,99,10.27,-0.6,73.0833,1655525625
savelugu,GH,74.68,86,100,7.47,9.6244,-0.8253,1655525626
albany,US,70.21,59,38,13.2,42.6001,-73.9662,1655525626
portland,US,57.56,89,75,0.0,45.5234,-122.6762,1655525626
manoel urbano,BR,71.13,97,100,2.01,-8.8389,-69.2597,1655525627
san quintin,MX,62.49,87,3,13.94,30.4833,-115.95,1655525627
tuktoyaktuk,CA,54.39,52,100,12.24,69.4541,-133.0374,1655525627
airai,TL,72.7,58,10,4.65,-8.9266,125.4092,1655525628
cockburn town,TC,81.39,80,100,15.79,21.4612,-71.1419,1655525527
verkhnetulomskiy,RU,41.13,86,100,4.23,68.6073,31.7962,1655525628
sola,VU,80.33,79,100,10.07,-13.8833,167.55,1655525628
esperance,AU,64.83,56,54,21.25,-33.8667,121.9,1655525629
kavaratti,IN,81.21,79,100,11.5,10.5669,72.642,1655525629
tutoia,BR,76.87,86,65,7.4,-2.7619,-42.2744,1655525629
luanda,AO,66.58,84,89,7.16,-8.8368,13.2343,1655525526
kot kapura,IN,78.69,67,100,5.79,30.5833,74.9,1655525544
avarua,CK,73.45,88,75,8.05,-21.2078,-159.775,1655525630
klaksvik,FO,50.92,88,100,38.79,62.2266,-6.589,1655525631
mandalgovi,MN,83.17,25,100,19.62,45.7625,106.2708,1655525631
new norfolk,AU,55.92,89,80,1.61,-42.7826,147.0587,1655525631
itoman,JP,86.38,89,75,12.66,26.1247,127.6694,1655525354
vaini,TO,77.16,100,75,10.36,-21.2,-175.2,1655525632
carlos chagas,BR,61.86,92,4,1.3,-17.7031,-40.7664,1655525632
khatanga,RU,41.68,76,100,22.88,71.9667,102.5,1655525632
saint simons,US,84.24,65,75,10.36,31.1352,-81.3901,1655525633
kozlovo,RU,53.29,87,6,7.72,56.5167,36.2667,1655525633
lalsot,IN,92.66,46,44,12.5,26.5667,76.3333,1655525474
hami,CN,77.72,28,100,25.08,42.8,93.45,1655525633
saint-philippe,RE,69.39,79,15,3.8,-21.3585,55.7679,1655525634
bilibino,RU,66.81,22,63,11.45,68.0546,166.4372,1655525634
laguna,US,66.18,62,0,11.5,38.421,-121.4238,1655525634
batagay-alyta,RU,66.65,33,40,4.09,67.8006,130.4114,1655525635
yar-sale,RU,60.42,46,98,13.89,66.8333,70.8333,1655525635
ahuimanu,US,82.11,74,75,17.27,21.4447,-157.8378,1655525635
padang,ID,84.25,65,37,4.23,-0.9492,100.3543,1655525635
mar del plata,AR,43.09,75,40,13.8,-38.0023,-57.5575,1655525636
shimoda,JP,75.11,89,100,8.57,34.6667,138.95,1655525636
cavarzere,IT,72.09,78,87,6.76,45.1356,12.0817,1655525637
piacabucu,BR,74.16,89,90,5.59,-10.4056,-36.4344,1655525637
santa ana,US,69.06,74,0,5.75,33.7456,-117.8678,1655525638
georgetown,MY,85.95,74,20,3.44,5.4112,100.3354,1655525638
kamenka,RU,62.49,75,42,5.39,51.3223,42.7678,1655525638
kisangani,CD,69.13,99,100,2.13,0.5167,25.2,1655525639
saint george,US,91.99,8,0,25.32,37.1041,-113.5841,1655525639
la asuncion,VE,78.62,80,68,18.3,11.0333,-63.8628,1655525640
salalah,OM,86.09,89,100,6.91,17.0151,54.0924,1655525641
jamestown,US,58.71,71,0,11.5,42.097,-79.2353,1655525522
sakakah,SA,88.29,16,0,8.3,29.9697,40.2064,1655525641
qaanaaq,GL,36.23,65,3,7.43,77.484,-69.3632,1655525643
gannan,CN,85.19,31,28,3.87,47.9147,123.5031,1655525643
grindavik,IS,46.87,87,20,31.07,63.8424,-22.4338,1655525644
hobyo,SO,78.57,78,85,22.3,5.3505,48.5268,1655525523
cabo san lucas,MX,83.61,69,7,7.7,22.8909,-109.9124,1655525644
kodiak,US,54.91,76,75,8.05,57.79,-152.4072,1655525644
vestmannaeyjar,IS,49.55,80,97,34.05,63.4427,-20.2734,1655525644
belyy yar,RU,67.86,59,0,13.42,53.6039,91.3903,1655525645
juneau,US,69.8,100,75,6.91,58.3019,-134.4197,1655525646
korla,CN,80.65,27,0,10.25,41.7597,86.1469,1655525646
faanui,PF,79.93,74,0,16.26,-16.4833,-151.75,1655525647
anadyr,RU,45.81,77,38,17.11,64.75,177.4833,1655525647
lebu,CL,45.32,78,56,7.72,-37.6167,-73.65,1655525648
marawi,PH,80.76,69,93,2.62,7.9986,124.2928,1655525649
valdivia,CL,37.49,97,73,0.96,-39.8142,-73.2459,1655525649
jagtial,IN,88.86,58,100,10.25,18.8,78.9333,1655525649
mount gambier,AU,58.84,55,29,7.52,-37.8333,140.7667,1655525649
xiongzhou,CN,81.43,83,100,5.68,25.1167,114.3,1655525651
moron,AR,44.35,51,0,5.53,-34.6534,-58.6198,1655525651
bauchi,NG,68.72,87,96,4.29,10.5,10.0,1655525651
karratha,AU,74.68,69,100,6.89,-20.7377,116.8463,1655525652
nantucket,US,66.31,94,100,11.5,41.2835,-70.0995,1655525652
ushtobe,KZ,82.94,23,32,8.01,45.2514,77.9838,1655525652
baiyin,CN,79.86,26,100,1.28,36.5583,104.2081,1655525610
vytegra,RU,46.74,97,100,6.24,61.0064,36.4481,1655525653
aksay,RU,61.02,49,93,4.47,47.26,39.87,1655525653
port elizabeth,ZA,65.32,34,100,4.0,-33.918,25.5701,1655525654
priladozhskiy,RU,50.32,82,94,6.49,59.85,31.4833,1655525654
arraial do cabo,BR,68.32,81,2,16.31,-22.9661,-42.0278,1655525655
bambous virieux,MU,72.21,74,0,0.47,-20.3428,57.7575,1655525655
coihaique,CL,39.81,81,100,3.44,-45.5752,-72.0662,1655525655
port macquarie,AU,65.89,70,59,14.97,-31.4333,152.9167,1655525656
riyadh,SA,89.74,13,0,10.87,24.6877,46.7219,1655525601
kavieng,PG,84.61,65,41,13.04,-2.5744,150.7967,1655525656
touros,BR,73.54,83,11,8.52,-5.1989,-35.4608,1655525657
coquimbo,CL,49.73,76,0,6.91,-29.9533,-71.3436,1655525657
thompson,CA,53.49,29,100,5.23,55.7435,-97.8558,1655525658
nedjo,ET,57.16,97,15,2.77,9.5046,35.5019,1655525658
kaitangata,NZ,45.81,78,90,9.6,-46.2817,169.8464,1655525658
provideniya,RU,55.17,47,20,4.47,64.3833,-173.3,1655525659
gat,IL,74.39,100,0,3.0,31.61,34.7642,1655525660
rosita,NI,73.24,99,96,0.56,13.9268,-84.4032,1655525660
hirara,JP,81.95,85,85,15.75,24.8,125.2833,1655525623
ekibastuz,KZ,75.07,37,48,9.35,51.6667,75.3667,1655525661
bilma,NE,86.94,16,1,19.57,18.6853,12.9164,1655525661
nome,US,64.17,59,100,5.75,64.5011,-165.4064,1655525662
kirakira,SB,82.81,76,91,5.3,-10.4544,161.9205,1655525662
kijang,KR,79.34,68,6,13.73,35.2442,129.2139,1655525402
cairns,AU,80.55,61,75,18.41,-16.9167,145.7667,1655525408
sanmenxia,CN,99.37,19,29,13.85,34.7747,111.1814,1655525662
sechura,PE,62.62,80,64,13.06,-5.5569,-80.8222,1655525663
maniitsoq,GL,38.59,96,100,13.91,65.4167,-52.9,1655525664
ambilobe,MG,67.46,80,0,2.57,-13.2,49.05,1655525664
cocobeach,GA,75.7,83,98,4.41,1.0002,9.5823,1655525666
kushima,JP,75.74,84,100,1.45,31.4583,131.2333,1655525667
isangel,VU,78.66,79,100,7.54,-19.55,169.2667,1655525667
awjilah,LY,74.35,50,0,5.93,29.1081,21.2869,1655525667
lima,PE,59.25,77,100,4.61,-12.0432,-77.0282,1655525667
chiang mai,TH,81.59,79,75,3.44,18.75,99.0,1655525417
goderich,CA,55.9,75,75,28.3,43.7501,-81.7165,1655525668
tuatapere,NZ,45.36,84,100,6.46,-46.1333,167.6833,1655525668
varginha,BR,54.68,61,4,1.52,-21.5514,-45.4303,1655525668
moussoro,TD,83.43,53,99,15.35,13.6408,16.4901,1655525668
jalu,LY,75.06,46,0,6.17,29.0331,21.5482,1655525669
valladolid,ES,76.28,59,62,5.14,41.5833,-4.6667,1655525669
sherghati,IN,95.43,42,9,12.73,24.5667,84.7833,1655525669
ancud,CL,43.23,79,100,8.55,-41.8697,-73.8203,1655525670
eureka,US,56.25,77,4,3.0,40.8021,-124.1637,1655525671
tikrit,IQ,93.2,15,0,13.85,34.6071,43.6782,1655525671
lucera,IT,66.09,74,43,9.15,41.5082,15.3351,1655525671
pevek,RU,38.07,71,83,8.23,69.7008,170.3133,1655525672
tiksi,RU,45.23,60,100,8.21,71.6872,128.8694,1655525673
mayo,US,80.55,50,0,8.05,38.8876,-76.5119,1655525673
santiago de cao,PE,60.93,88,21,8.05,-7.9589,-79.2392,1655525673
vardo,NO,39.18,87,100,6.91,70.3705,31.1107,1655525673
revelstoke,CA,57.02,95,97,1.32,50.9832,-118.2023,1655525674
lorengau,PG,84.47,71,72,12.19,-2.0226,147.2712,1655525674
sao filipe,CV,74.14,77,26,13.38,14.8961,-24.4956,1655525674
hirosaki,JP,78.67,43,24,9.75,40.5931,140.4725,1655525455
yelizovo,RU,66.34,52,75,2.24,53.1873,158.3805,1655525675
codrington,AU,59.59,56,2,8.23,-38.2667,141.9667,1655525675
paita,PE,63.0,80,66,12.17,-5.0892,-81.1144,1655525675
namatanai,PG,83.97,69,55,7.18,-3.6667,152.4333,1655525675
praia da vitoria,PT,67.75,90,20,9.73,38.7333,-27.0667,1655525676
nyandoma,RU,45.39,95,100,6.55,61.669,40.1991,1655525676
margate,GB,67.3,74,20,1.99,51.3813,1.3862,1655525677
saldanha,ZA,59.85,80,99,18.57,-33.0117,17.9442,1655525677
palmer,US,71.62,68,40,11.5,42.1584,-72.3287,1655525678
conde,BR,71.06,100,0,3.44,-7.2597,-34.9075,1655525678
dicabisagan,PH,90.01,61,60,9.15,17.0818,122.4157,1655525678
takoradi,GH,74.71,89,100,6.22,4.8845,-1.7554,1655525679
chokurdakh,RU,48.47,49,94,7.31,70.6333,147.9167,1655525679
buenos aires,AR,44.33,48,0,3.44,-34.6132,-58.3772,1655525527
zyryanka,RU,65.48,39,98,15.17,65.75,150.85,1655525643
olinda,BR,73.13,88,40,2.3,-8.0089,-34.8553,1655525680
kurumkan,RU,77.54,44,100,0.94,54.3,110.3,1655525681
kirovo-chepetsk,RU,62.44,68,42,5.64,58.5539,50.0399,1655525681
urumqi,CN,74.35,29,0,4.47,43.801,87.6005,1655525682
lavrentiya,RU,47.43,65,10,5.68,65.5833,-171.0,1655525682
charyshskoye,RU,64.72,74,98,4.79,51.3978,83.5598,1655525682
saint-francois,FR,57.67,94,0,4.61,46.4154,3.9054,1655525682
severo-kurilsk,RU,51.57,90,97,7.96,50.6789,156.125,1655525683
mitu,CO,70.66,99,100,2.15,1.1983,-70.1733,1655525683
iqaluit,CA,36.7,61,53,11.01,63.7506,-68.5145,1655525683
lufilufi,WS,85.78,77,14,21.32,-13.8745,-171.5986,1655525684
morondava,MG,62.73,56,0,7.65,-20.2833,44.2833,1655525684
torbay,CA,47.75,68,37,4.0,47.6666,-52.7314,1655525684
khorixas,NA,54.14,60,1,1.36,-20.3667,14.9667,1655525408
selkirk,CA,56.64,72,5,8.86,50.1436,-96.8845,1655525685
thunder bay,CA,49.41,54,0,4.07,48.4001,-89.3168,1655525686
nieuw nickerie,SR,77.63,84,85,7.43,5.95,-56.9833,1655525691
college,US,73.38,31,75,12.66,64.8569,-147.8028,1655525691
mitsamiouli,KM,76.44,69,5,9.28,-11.3847,43.2844,1655525691
samarai,PG,82.98,71,3,9.64,-10.6167,150.6667,1655525691
ahipara,NZ,60.03,94,100,9.19,-35.1667,173.1667,1655525692
gallup,US,72.36,57,75,14.97,35.5281,-108.7426,1655525692
guozhen,CN,93.88,28,100,5.73,34.3659,107.359,1655525692
vinh,VN,93.97,50,83,10.69,18.6667,105.6667,1655525560
cherskiy,RU,53.38,46,73,13.31,68.75,161.3,1655525421
otorohanga,NZ,56.34,98,100,2.37,-38.1833,175.2,1655525434
hun,LY,70.63,54,0,3.6,29.1268,15.9477,1655525694
middle island,US,75.87,60,0,9.22,40.8843,-72.9373,1655525694
selfoss,IS,46.04,76,100,22.37,63.9331,-20.9971,1655525694
kerman,IR,79.72,16,0,3.62,30.2832,57.0788,1655525695
nagercoil,IN,83.57,67,96,10.27,8.1667,77.4333,1655525599
santa rosa,PH,95.11,59,93,7.94,14.3122,121.1114,1655525695
waounde,SN,81.84,60,100,8.86,15.2637,-12.8682,1655525695
horsham,GB,66.02,85,0,1.14,51.064,-0.3272,1655525696
kishorganj,BD,79.0,91,100,6.8,24.4333,90.7667,1655525696
ribeira grande,PT,65.71,91,0,9.15,38.5167,-28.7,1655525697
rocha,UY,48.45,64,94,15.57,-34.4833,-54.3333,1655525697
xining,CN,69.69,36,100,2.26,36.6167,101.7667,1655525697
dahuk,IQ,86.16,18,0,3.91,36.8695,42.994,1655525698
clyde river,CA,34.03,80,0,17.27,70.4692,-68.5914,1655525700
olafsvik,IS,45.1,86,57,25.7,64.8945,-23.7142,1655525700
yuli,NG,70.09,95,100,2.53,9.6989,10.2744,1655525701
luderitz,NA,55.87,69,2,4.21,-26.6481,15.1594,1655525701
kahului,US,82.42,63,40,21.85,20.8947,-156.47,1655525702
san patricio,US,83.89,80,5,9.64,28.017,-97.5169,1655525702
kapaa,US,78.78,79,20,11.5,22.0752,-159.319,1655525702
cortez,US,74.16,35,75,23.02,37.3489,-108.5859,1655525703
estevan,CA,71.94,60,75,24.16,49.1334,-102.9842,1655525703
cap malheureux,MU,72.46,75,0,3.0,-19.9842,57.6142,1655525703
talnakh,RU,54.86,54,1,12.33,69.4865,88.3972,1655525704
tasgaon,IN,81.09,60,100,11.01,17.0333,74.6,1655525614
yermakovskoye,RU,65.62,54,98,4.83,53.2831,92.4003,1655525704
haines junction,CA,64.35,32,88,4.61,60.7522,-137.5108,1655525704
xai-xai,MZ,54.54,67,0,7.47,-25.0519,33.6442,1655525705
bathurst,AU,56.97,56,0,1.01,-33.4166,149.5806,1655525706
maceio,BR,72.84,88,75,4.61,-9.6658,-35.7353,1655525706
umm lajj,SA,85.28,54,9,9.53,25.0213,37.2685,1655525706
svetlogorsk,BY,55.02,89,4,5.53,52.6333,29.7333,1655525706
sokolka,PL,54.48,92,85,4.59,53.4072,23.5023,1655525706
mezhdurechensk,RU,61.29,90,87,9.8,53.6942,88.0603,1655525707
codajas,BR,70.12,86,4,2.73,-3.8367,-62.0569,1655525707
bathsheba,BB,81.21,78,20,19.57,13.2167,-59.5167,1655525707
rio gallegos,AR,32.05,74,0,13.8,-51.6226,-69.2181,1655525708
huanuni,BO,28.87,20,0,3.65,-18.2667,-66.85,1655525708
flinders,AU,65.17,59,73,5.01,-34.5833,150.8552,1655525708
magadan,RU,65.53,79,36,6.06,59.5667,150.8,1655525708
zamosc,PL,55.2,88,12,3.67,50.7231,23.252,1655525566
ostrovnoy,RU,39.7,98,100,15.59,68.0531,39.5131,1655525709
guadalajara,MX,71.98,64,40,6.91,20.6667,-103.3333,1655525709
chicama,PE,59.54,86,29,3.4,-7.8447,-79.1469,1655525709
cidreira,BR,54.93,75,57,17.43,-30.1811,-50.2056,1655525710
jequitinhonha,BR,59.59,84,1,1.92,-16.4339,-41.0033,1655525710
mecca,SA,89.51,24,29,4.83,21.4267,39.8261,1655525711
maromitsa,RU,58.68,73,6,5.08,59.8683,48.0123,1655525711
qaqortoq,GL,41.79,94,100,15.79,60.7167,-46.0333,1655525711
beringovskiy,RU,52.59,64,9,15.39,63.05,179.3167,1655525711
carlyle,US,77.95,83,30,7.43,38.6103,-89.3726,1655525712
pachino,IT,74.35,70,100,14.45,36.7186,15.0907,1655525712
sal rei,CV,73.26,85,80,20.11,16.1833,-22.9167,1655525713
laurel,US,78.48,55,0,6.91,39.0993,-76.8483,1655525713
hamilton,US,74.64,58,0,9.22,39.1834,-84.5333,1655525421
havoysund,NO,43.03,68,30,17.34,70.9963,24.6622,1655525714
hovd,MN,66.09,30,17,6.04,48.0056,91.6419,1655525714
alenquer,BR,72.95,77,10,2.37,-1.9417,-54.7383,1655525638
bagdarin,RU,69.49,52,100,4.23,54.4333,113.6,1655525559
ayan,RU,46.51,91,100,5.93,56.45,138.1667,1655525715
nador,MA,75.45,78,0,4.61,35.174,-2.9287,1655525715
migori,KE,57.67,80,36,6.69,-1.0634,34.4731,1655525715
kyra,RU,75.74,50,85,7.36,49.5776,111.9753,1655525716
port hawkesbury,CA,59.97,96,100,11.5,45.6169,-61.3485,1655525716
zaysan,KZ,75.25,30,1,7.9,47.4667,84.8667,1655525716
cururupu,BR,73.02,97,100,2.84,-1.8283,-44.8683,1655525716
pacific grove,US,59.23,87,0,4.61,36.6177,-121.9166,1655525717
vung tau,VN,85.55,70,69,4.92,10.346,107.0843,1655525561
beaune,FR,60.44,58,17,4.47,47.0833,4.75,1655525718
abu dhabi,AE,87.82,83,0,3.44,24.4667,54.3667,1655525586
jais,IN,97.45,35,81,11.79,26.25,81.5333,1655525718
natal,BR,75.42,94,0,5.75,-5.795,-35.2094,1655525719
pasaco,GT,73.78,98,100,3.74,13.9772,-90.2064,1655525720
komyshuvakha,UA,65.39,69,100,3.15,47.7176,35.5288,1655525720
snihurivka,UA,62.82,85,95,3.29,47.0758,32.8052,1655525720
mizdah,LY,68.0,58,0,3.69,31.4451,12.9801,1655525720
shahreza,IR,76.3,21,0,4.34,32.0339,51.8794,1655525721
castanhal,BR,70.97,97,72,2.86,-1.2939,-47.9264,1655525722
oranjemund,NA,58.19,65,81,8.88,-28.55,16.4333,1655525722
kerouane,GN,68.43,97,100,3.15,9.2667,-9.0167,1655525722
congonhas,BR,54.93,59,0,3.67,-20.4997,-43.8578,1655525723
sao gabriel da cachoeira,BR,72.46,93,100,2.15,-0.1303,-67.0892,1655525723
distraccion,CO,73.63,96,88,1.68,10.8969,-72.8861,1655525724
dickinson,US,85.95,84,0,9.22,29.4608,-95.0513,1655525724
russell,US,79.12,88,0,0.0,32.3502,-85.1999,1655525724
zhezkazgan,KZ,85.98,16,0,8.95,47.8043,67.7144,1655525724
srandakan,ID,85.08,67,62,5.59,-7.9386,110.2506,1655525725
mahmudabad,IN,99.19,29,19,9.46,27.3,81.1167,1655525725
ajdabiya,LY,71.1,74,0,8.39,30.7554,20.2263,1655525726
bull savanna,JM,76.24,80,99,6.42,17.8868,-77.5902,1655525726
ampanihy,MG,56.71,80,0,2.51,-24.7,44.75,1655525728
port alberni,CA,63.12,77,99,4.0,49.2413,-124.8028,1655525728
filimonovo,RU,68.85,59,62,10.67,56.2011,95.4611,1655525728
pinheiro machado,BR,36.05,91,0,7.43,-31.5783,-53.3811,1655525729
lumeje,AO,52.27,57,12,4.38,-11.55,20.7833,1655525729
petrozavodsk,RU,49.48,81,100,8.95,61.7849,34.3469,1655525729
kadhan,PK,91.96,52,1,22.26,24.481,68.9859,1655525730
noshiro,JP,81.43,64,27,9.13,40.2039,140.0242,1655525730
sioux lookout,CA,50.07,66,40,3.44,50.1001,-91.917,1655525730
yumen,CN,79.77,19,100,1.43,40.2833,97.2,1655525731
veshkayma,RU,62.83,68,45,5.21,54.05,47.1333,1655525731
faya,SA,72.12,23,23,4.56,18.3851,42.4509,1655525732
wajima,JP,74.52,70,51,3.15,37.4,136.9,1655525464
zaraza,VE,74.89,84,52,4.85,9.3503,-65.3245,1655525732
bairiki,KI,86.0,70,20,11.5,1.3292,172.9752,1655525732
wahiawa,US,79.12,65,0,14.97,21.5028,-158.0236,1655525732
aklavik,CA,72.9,30,92,15.46,68.2191,-135.0107,1655525733
saint anthony,US,70.93,70,0,0.0,45.0205,-93.218,1655525733
rock sound,BS,80.51,73,3,4.63,24.9,-76.2,1655525733
charters towers,AU,76.12,39,3,9.24,-20.1,146.2667,1655525733
bandarbeyla,SO,80.92,64,14,26.96,9.4942,50.8122,1655525734
moissac,FR,66.07,46,2,6.4,44.1024,1.0945,1655525734
toyooka,JP,84.25,65,75,5.75,35.5333,134.8333,1655525734
ulladulla,AU,60.76,63,24,9.91,-35.35,150.4667,1655525734
corinto,GR,75.88,60,0,2.82,37.9407,22.9573,1655525735
bulgan,MN,73.26,50,99,5.86,48.8125,103.5347,1655525735
asau,RO,58.12,87,34,3.49,46.4333,26.4,1655525736
nakama,JP,87.01,70,79,6.73,33.8167,130.7,1655525682
guerrero negro,MX,64.33,83,28,12.95,27.9769,-114.0611,1655525736
tura,IN,73.69,97,100,5.14,25.5198,90.2201,1655525736
niquero,CU,73.26,90,99,11.32,20.0431,-77.5828,1655525737
rovaniemi,FI,47.61,76,0,6.91,66.5,25.7167,1655525737
mira,IT,72.1,75,0,3.44,45.4358,12.1348,1655525738
bushehr,IR,87.89,58,0,4.61,28.9684,50.8385,1655525739
kabansk,RU,59.36,85,100,9.69,52.0486,106.6528,1655525739
gorele,TR,68.41,78,88,2.64,41.0308,39.0031,1655525739
jacareacanga,BR,68.99,79,0,0.87,-6.2222,-57.7528,1655525739
andenes,NO,53.58,71,7,6.91,69.3143,16.1194,1655525741
wawa,NG,73.24,83,100,5.12,9.9022,4.4192,1655525741
fortuna,US,56.66,78,40,9.22,40.5982,-124.1573,1655525743
namibe,AO,60.28,86,24,6.42,-15.1961,12.1522,1655525743
farafangana,MG,64.69,76,95,4.23,-22.8167,47.8333,1655525743
idritsa,RU,54.43,74,63,4.63,56.3316,28.8988,1655525744
lazaro cardenas,MX,77.5,82,99,4.81,17.9583,-102.2,1655525744
bougouni,ML,74.07,86,100,6.15,11.417,-7.479,1655525744
lubbock,US,79.05,34,20,10.36,33.6001,-101.8338,1655525745
berlevag,NO,41.0,87,100,10.36,70.8578,29.0864,1655525745
muisne,EC,74.1,86,93,7.29,0.6,-80.0333,1655525746
tezu,IN,72.68,99,100,3.04,27.9167,96.1667,1655525746
peleduy,RU,83.19,23,100,4.5,59.6289,112.7406,1655525746
lagoa,PT,65.17,90,0,10.58,39.05,-27.9833,1655525748
tlacotalpan,MX,78.69,83,62,6.17,18.6167,-95.6667,1655525748
carthage,TN,69.33,83,20,1.14,36.8611,10.3316,1655525748
baykit,RU,68.4,58,71,6.62,61.67,96.37,1655525748
shahr-e babak,IR,80.67,15,0,5.12,30.1165,55.1186,1655525749
geraldton,AU,68.41,60,100,18.41,-28.7667,114.6,1655525717
qandala,SO,91.45,45,3,3.65,11.472,49.8728,1655525749
kruisfontein,ZA,59.88,32,100,11.81,-34.0033,24.7314,1655525749
mao,ES,72.16,94,0,3.44,39.8885,4.2658,1655525749
kindu,CD,69.04,94,100,2.55,-2.95,25.95,1655525750
dzaoudzi,YT,78.69,73,0,12.66,-12.7887,45.2699,1655525750
kalmunai,LK,81.27,73,100,7.63,7.4167,81.8167,1655525750
wasilla,US,61.36,63,40,11.5,61.5814,-149.4394,1655525751
manzhouli,CN,74.23,45,89,2.64,49.6,117.4333,1655525751
ostersund,SE,55.62,100,100,14.0,63.1792,14.6357,1655525752
hambantota,LK,78.37,83,100,13.58,6.1241,81.1185,1655525700
vanavara,RU,69.01,55,99,5.35,60.34,102.2797,1655525753
ranong,TH,87.73,68,50,4.18,9.9658,98.6348,1655525753
narsaq,GL,48.42,95,100,3.89,60.9167,-46.05,1655525753
roald,NO,57.16,66,75,20.71,62.5833,6.1333,1655525754
the pas,CA,55.42,44,20,9.22,53.8251,-101.2541,1655525754
mehamn,NO,40.95,87,100,9.22,71.0357,27.8492,1655525755
may pen,JM,79.81,83,100,3.98,17.9645,-77.2451,1655525755
gravelbourg,CA,77.27,57,61,24.61,49.8834,-106.5512,1655525755
changji,CN,81.39,26,0,4.47,44.0167,87.3167,1655525755
san lawrenz,MT,73.85,88,82,10.09,36.0553,14.204,1655525756
tommot,RU,67.08,39,47,3.98,58.9564,126.2925,1655525756
san andres,CO,78.82,94,75,0.0,12.5847,-81.7006,1655525756
shebunino,RU,57.81,93,100,10.45,46.4339,141.8603,1655525757
moose factory,CA,42.8,70,0,17.27,51.2585,-80.6094,1655525757
pampa,US,81.55,53,0,10.36,35.5362,-100.9599,1655525758
saint-georges,GD,80.28,78,20,23.02,12.0564,-61.7485,1655525521
pinawa,CA,53.31,63,1,6.44,50.1489,-95.8811,1655525758
concepcion,CL,40.8,100,85,2.3,-36.827,-73.0498,1655525758
de panne,BE,69.01,78,4,2.3,51.0792,2.5917,1655525759
mosquera,CO,51.89,100,40,2.3,4.7059,-74.2302,1655525759
bafra,TR,71.82,68,0,2.91,41.5678,35.9069,1655525760
ouesso,CG,67.82,99,100,2.26,1.6136,16.0517,1655525761
nizhneangarsk,RU,62.83,61,100,2.51,55.7833,109.55,1655525761
grand gaube,MU,72.37,75,0,3.0,-20.0064,57.6608,1655525762
taian,CN,101.84,21,100,9.42,36.1853,117.12,1655525608
mareeba,AU,74.48,62,40,7.87,-17.0,145.4333,1655525762
chernyy yar,RU,71.6,50,2,6.53,48.0624,46.1091,1655525763
selikhino,RU,70.86,69,100,3.18,50.3672,137.4996,1655525763
nara,JP,77.92,59,100,3.11,34.6851,135.8049,1655525581
sinegorye,RU,61.7,47,73,3.44,62.0788,150.477,1655525764
polson,US,65.21,70,100,2.89,47.6936,-114.1632,1655525764
turochak,RU,62.29,76,100,4.34,52.2576,87.1224,1655525765
dukat,RU,57.47,41,93,3.69,62.55,155.55,1655525766
bonthe,SL,75.07,88,100,4.14,7.5264,-12.505,1655525766
sambava,MG,68.92,86,4,6.8,-14.2667,50.1667,1655525766
hasaki,JP,79.2,80,100,15.19,35.7333,140.8333,1655525508
allada,BJ,70.97,98,100,5.28,6.6655,2.1514,1655525766
grand-santi,GF,71.01,99,62,1.63,4.25,-54.3833,1655525767
champerico,GT,79.99,80,100,5.66,14.3,-91.9167,1655525767
aykhal,RU,74.03,39,70,23.2,66.0,111.5,1655525767
qui nhon,VN,92.32,56,90,9.55,13.7667,109.2333,1655525601
bafata,GW,78.22,79,100,0.94,12.1667,-14.75,1655525768
aleksandrovka,UA,63.23,85,92,5.39,46.8383,32.7612,1655525768
sassandra,CI,74.88,78,98,4.81,4.95,-6.0833,1655525768
chunoyar,RU,73.98,43,96,5.3,57.4467,97.3217,1655525768
saint-pierre,RE,70.92,78,100,5.75,-21.3393,55.4781,1655525527
tourlaville,FR,62.02,100,74,4.61,49.6383,-1.5664,1655525769
reconquista,AR,48.15,49,0,5.86,-29.15,-59.65,1655525769
derzhavinsk,KZ,79.54,36,19,3.36,51.1,66.3167,1655525769
chapais,CA,46.18,98,100,11.88,49.7834,-74.8492,1655525770
morro bay,US,57.45,83,0,4.0,35.3658,-120.8499,1655525770
harper,LR,76.42,71,97,8.55,4.375,-7.7169,1655525771
neiafu,TO,81.28,74,40,13.8,-18.65,-173.9833,1655525771
puerto escondido,MX,79.02,84,82,10.31,15.85,-97.0667,1655525772
panalingaan,PH,85.77,70,82,4.59,8.7842,117.4231,1655525772
arlit,NE,89.24,23,93,9.6,18.7369,7.3853,1655525772
sept-iles,CA,56.05,95,75,12.66,50.2001,-66.3821,1655525773
terrace,CA,67.91,55,75,5.75,54.5163,-128.6035,1655525773
shache,CN,78.71,27,100,9.01,38.4167,77.2406,1655525773
lata,PT,58.39,93,100,1.25,40.1629,-8.3327,1655525774
husavik,IS,44.58,98,100,21.88,66.0449,-17.3389,1655525774
kholtoson,RU,72.21,46,100,7.43,50.2981,103.3097,1655525774
davila,PH,89.58,66,96,7.99,18.4726,120.5763,1655525775
portobelo,PA,77.72,87,100,6.02,9.55,-79.65,1655525775
verkhnevilyuysk,RU,74.95,27,42,2.44,63.4453,120.3167,1655525775
pyaozerskiy,RU,46.24,78,100,5.28,65.8333,31.1667,1655525775
maldonado,UY,48.22,63,99,16.67,-34.6667,-54.9167,1655525776
kloulklubed,PW,84.7,70,100,6.15,7.0419,134.2556,1655525776
egvekinot,RU,43.97,72,63,6.35,66.3167,-179.1667,1655525776
brownsville,US,80.55,85,0,6.91,25.9018,-97.4975,1655525776
broken hill,AU,58.23,48,0,5.64,-31.95,141.4333,1655525691
conceicao do araguaia,BR,72.41,65,9,0.96,-8.2578,-49.2647,1655525777
caravelas,BR,67.42,92,4,4.92,-17.7125,-39.2481,1655525777
kabompo,ZM,47.8,65,33,4.61,-13.5927,24.2008,1655525778
kieta,PG,82.49,76,21,4.52,-6.2167,155.6333,1655525778
victoria,HK,89.19,82,96,11.99,22.2855,114.1577,1655525700
arouca,TT,78.93,85,20,3.44,10.6333,-61.3333,1655525778
hurghada,EG,79.23,53,0,20.85,27.2574,33.8129,1655525635
norman wells,CA,68.04,37,20,12.66,65.282,-126.8329,1655525779
caska,MK,57.72,79,41,4.43,41.6506,21.6622,1655525779
wuwei,CN,86.27,20,97,17.94,37.9281,102.6414,1655525632
camacha,PT,63.82,77,40,13.8,33.0833,-16.3333,1655525780
constantine,DZ,62.01,51,0,2.3,36.365,6.6147,1655525781
maragogi,BR,72.0,93,19,5.97,-9.0122,-35.2225,1655525781
salamanca,ES,77.63,40,100,7.65,40.8333,-6.0,1655525782
tateyama,JP,76.1,89,100,16.78,34.9833,139.8667,1655525782
colac,AU,60.17,60,5,2.82,-38.3333,143.5833,1655525782
santa teresita,PH,88.54,58,99,10.45,13.8664,120.9814,1655525784
ternate,ID,84.18,67,97,4.32,0.8,127.4,1655525784
launceston,AU,53.8,82,75,9.22,-41.45,147.1667,1655525785
ilulissat,GL,35.62,93,75,4.61,69.2167,-51.1,1655525785
sao joao do paraiso,BR,55.92,60,0,1.01,-15.3136,-42.0144,1655525785
banda aceh,ID,82.29,75,99,4.65,5.5577,95.3222,1655525786
gogapur,IN,86.9,57,99,13.71,23.55,75.5167,1655525786
hay river,CA,57.18,72,75,9.22,60.8156,-115.7999,1655525786
cambados,ES,65.39,96,51,1.77,42.5122,-8.8131,1655525787
burkburnett,US,86.88,56,0,9.22,34.0979,-98.5706,1655525787
tornio,FI,51.82,81,82,8.23,65.8481,24.1466,1655525788
birin,NP,66.65,90,81,2.95,26.8865,88.0718,1655525788
bonavista,CA,45.39,79,13,10.2,48.6499,-53.1147,1655525788
carupano,VE,75.22,89,99,5.91,10.6678,-63.2585,1655525788
boma,GH,70.05,100,100,3.67,7.0805,-2.1697,1655525789
hualmay,PE,61.29,79,47,6.6,-11.0964,-77.6139,1655525789
port blair,IN,87.84,70,40,8.05,11.6667,92.75,1655525789
kaeo,NZ,61.32,97,100,12.91,-35.1,173.7833,1655525546
kirkwall,GB,51.85,71,75,25.32,58.9848,-2.9587,1655525790
menongue,AO,49.64,62,12,4.92,-14.6585,17.691,1655525791
naron,ES,63.68,95,82,2.82,43.5167,-8.1528,1655525791
beyneu,KZ,73.53,58,96,7.7,45.3167,55.2,1655525791
chizhou,CN,89.06,57,93,0.92,30.6578,117.4831,1655525791
yokadouma,CM,65.91,99,100,0.58,3.5167,15.05,1655525792
toba tek singh,PK,85.91,58,86,5.88,30.9743,72.4827,1655525792
sorsk,RU,58.17,71,88,12.88,54.0033,90.2467,1655525793
pereira barreto,BR,66.06,93,100,12.01,-20.6383,-51.1092,1655525793
kinsale,IE,51.17,76,75,12.66,51.7075,-8.5306,1655525793
mstera,RU,57.33,85,53,5.88,56.3789,41.92,1655525793
lakes entrance,AU,57.7,60,1,2.42,-37.8811,147.981,1655525794
atar,MR,90.25,33,75,7.14,20.5169,-13.0499,1655525794
aitape,PG,83.68,75,59,6.38,-3.1374,142.3475,1655525794
bandrele,YT,78.55,73,0,12.66,-12.9067,45.1914,1655525795
chiredzi,ZW,53.22,94,0,2.98,-21.05,31.6667,1655525796
campina verde,BR,71.42,36,20,7.56,-19.5356,-49.4864,1655525797
necochea,AR,41.38,69,71,13.62,-38.5473,-58.7368,1655525797
aldan,RU,61.66,41,42,6.22,58.6031,125.3894,1655525798
port lincoln,AU,63.52,55,23,15.93,-34.7333,135.8667,1655525799
camargo,MX,84.83,21,47,18.25,27.6667,-105.1667,1655525799
plumbon,ID,83.05,71,86,3.67,-6.705,108.4728,1655525799
sistranda,NO,49.96,82,100,16.69,63.7256,8.834,1655525800
jega,NG,77.77,71,95,6.46,12.2175,4.3792,1655525800
vaitape,PF,79.9,75,1,16.35,-16.5167,-151.75,1655525800
walvis bay,NA,57.09,93,100,8.05,-22.9575,14.5053,1655525800
balykshi,KZ,69.8,78,0,8.95,47.0667,51.8667,1655525801
morant bay,JM,80.22,84,100,6.64,17.8815,-76.4093,1655525801
kangaatsiaq,GL,33.85,96,90,2.89,68.3065,-53.4641,1655525802
constitucion,CL,50.27,83,97,7.23,-35.3333,-72.4167,1655525802
port-cartier,CA,55.74,98,98,6.11,50.0334,-66.8654,1655525802
